{
"type": "FeatureCollection",
"crs": { "type": "name", "properties": { "name": "urn:ogc:def:crs:OGC:1.3:CRS84" } },
                                                                                
"features": [
{ "type": "Feature", "properties": { "osm_id": "245738988", "name": "Bara Daldali", "type": "village", "x": "93.5947", "y": "25.8267" }, "geometry": { "type": "Point", "coordinates": [ 93.5947, 25.8267 ] } },
{ "type": "Feature", "properties": { "osm_id": "245740681", "name": "Burakek", "type": "village", "x": "93.1893", "y": "25.9462" }, "geometry": { "type": "Point", "coordinates": [ 93.1893, 25.9462 ] } },
{ "type": "Feature", "properties": { "osm_id": "245742040", "name": "Baghuliaghat", "type": "village", "x": "93.1969017", "y": "26.0564147" }, "geometry": { "type": "Point", "coordinates": [ 93.1969017, 26.0564147 ] } },
{ "type": "Feature", "properties": { "osm_id": "245746090", "name": "Eksekgaon", "type": "village", "x": "93.2358", "y": "26.2757" }, "geometry": { "type": "Point", "coordinates": [ 93.2358, 26.2757 ] } },
{ "type": "Feature", "properties": { "osm_id": "245746478", "name": "Garampani", "type": "village", "x": "93.8600258", "y": "26.2962625" }, "geometry": { "type": "Point", "coordinates": [ 93.8600258, 26.2962625 ] } },
{ "type": "Feature", "properties": { "osm_id": "245747585", "name": "Arlangbati", "type": "village", "x": "93.5417", "y": "26.402" }, "geometry": { "type": "Point", "coordinates": [ 93.5417, 26.402 ] } },
{ "type": "Feature", "properties": { "osm_id": "245750035", "name": "Kaziranga", "type": "village", "x": "93.2415", "y": "26.5787" }, "geometry": { "type": "Point", "coordinates": [ 93.2415, 26.5787 ] } },
{ "type": "Feature", "properties": { "osm_id": "1495287081", "name": "Howraghat", "type": "village", "x": "93.0358027", "y": "26.112822" }, "geometry": { "type": "Point", "coordinates": [ 93.0358027, 26.112822 ] } },
{ "type": "Feature", "properties": { "osm_id": "1681545138", "name": "Kohora", "type": "village", "x": "93.4105813", "y": "26.5869979" }, "geometry": { "type": "Point", "coordinates": [ 93.4105813, 26.5869979 ] } },
{ "type": "Feature", "properties": { "osm_id": "1692837276", "name": "Amguri", "type": "village", "x": "93.0661787", "y": "26.5788721" }, "geometry": { "type": "Point", "coordinates": [ 93.0661787, 26.5788721 ] } },
{ "type": "Feature", "properties": { "osm_id": "2885039362", "name": "Amlakhi", "type": "village", "x": "93.4904099", "y": "25.9646841" }, "geometry": { "type": "Point", "coordinates": [ 93.4904099, 25.9646841 ] } }
]
}
